police = {"result": [{"category": "anti-social-behaviour", "persistent_id": "", "location_subtype": "", "id": 20831209, "location": {"latitude": "51.514069", "street": {"id": 955673, "name": "On or near Dod Street"}, "longitude": "-0.026146"}, "context": "", "month": "2013-01", "location_type": "Force", "outcome_status": null}, {"category": "anti-social-behaviour", "persistent_id": "", "location_subtype": "", "id": 20831210, "location": {"latitude": "51.514069", "street": {"id": 955673, "name": "On or near Dod Street"}, "longitude": "-0.026146"}, "context": "", "month": "2013-01", "location_type": "Force", "outcome_status": null}, {"category": "anti-social-behaviour", "persistent_id": "", "location_subtype": "", "id": 20831074, "location": {"latitude": "51.501220", "street": {"id": 954212, "name": "On or near Admirals Way"}, "longitude": "-0.021471"}, "context": "", "month": "2013-01", "location_type": "Force", "outcome_status": null}, {"category": "anti-social-behaviour", "persistent_id": "", "location_subtype": "", "id": 20831087, "location": {"latitude": "51.499981", "street": {"id": 954200, "name": "On or near Mastmaker Road"}, "longitude": "-0.021035"}, "context": "", "month": "2013-01", "location_type": "Force", "outcome_status": null}, {"category": "anti-social-behaviour", "persistent_id": "", "location_subtype": "", "id": 20831094, "location": {"latitude": "51.517770", "street": {"id": 961929, "name": "On or near Hawgood Street"}, "longitude": "-0.020610"}, "context": "", "month": "2013-01", "location_type": "Force", "outcome_status": null}, {"category": "anti-social-behaviour", "persistent_id": "", "location_subtype": "", "id": 20830940, "location": {"latitude": "51.518985", "street": {"id": 962021, "name": "On or near Teviot Street"}, "longitude": "-0.011606"}, "context": "", "month": "2013-01", "location_type": "Force", "outcome_status": null}, {"category": "anti-social-behaviour", "persistent_id": "", "location_subtype": "", "id": 20830939, "location": {"latitude": "51.518985", "street": {"id": 962021, "name": "On or near Teviot Street"}, "longitude": "-0.011606"}, "context": "", "month": "2013-01", "location_type": "Force", "outcome_status": null}, {"category": "anti-social-behaviour", "persistent_id": "", "location_subtype": "", "id": 20830938, "location": {"latitude": "51.518985", "street": {"id": 962021, "name": "On or near Teviot Street"}, "longitude": "-0.011606"}, "context": "", "month": "2013-01", "location_type": "Force", "outcome_status": null}, {"category": "anti-social-behaviour", "persistent_id": "", "location_subtype": "", "id": 20830937, "location": {"latitude": "51.517556", "street": {"id": 962020, "name": "On or near Zetland Street"}, "longitude": "-0.011654"}, "context": "", "month": "2013-01", "location_type": "Force", "outcome_status": null}, {"category": "anti-social-behaviour", "persistent_id": "", "location_subtype": "", "id": 20831251, "location": {"latitude": "51.514833", "street": {"id": 955646, "name": "On or near Pixley Street"}, "longitude": "-0.029356"}, "context": "", "month": "2013-01", "location_type": "Force", "outcome_status": null}, {"category": "anti-social-behaviour", "persistent_id": "", "location_subtype": "", "id": 20831252, "location": {"latitude": "51.514833", "street": {"id": 955646, "name": "On or near Pixley Street"}, "longitude": "-0.029356"}, "context": "", "month": "2013-01", "location_type": "Force", "outcome_status": null}, {"category": "anti-social-behaviour", "persistent_id": "", "location_subtype": "", "id": 20830974, "location": {"latitude": "51.517189", "street": {"id": 962014, "name": "On or near Chadbourn Street"}, "longitude": "-0.013904"}, "context": "", "month": "2013-01", "location_type": "Force", "outcome_status": null}, {"category": "anti-social-behaviour", "persistent_id": "", "location_subtype": "", "id": 20830921, "location": {"latitude": "51.516335", "street": {"id": 955539, "name": "On or near Spey Street"}, "longitude": "-0.011274"}, "context": "", "month": "2013-01", "location_type": "Force", "outcome_status": null}, {"category": "anti-social-behaviour", "persistent_id": "", "location_subtype": "", "id": 20830929, "location": {"latitude": "51.516335", "street": {"id": 955539, "name": "On or near Spey Street"}, "longitude": "-0.011274"}, "context": "", "month": "2013-01", "location_type": "Force", "outcome_status": null}, {"category": "anti-social-behaviour", "persistent_id": "", "location_subtype": "", "id": 20831272, "location": {"latitude": "51.514409", "street": {"id": 955639, "name": "On or near Southwater Close"}, "longitude": "-0.030873"}, "context": "", "month": "2013-01", "location_type": "Force", "outcome_status": null}, {"category": "anti-social-behaviour", "persistent_id": "", "location_subtype": "", "id": 20825792, "location": {"latitude": "51.501967", "street": {"id": 954232, "name": "On or near Sandpiper Close"}, "longitude": "-0.033773"}, "context": "", "month": "2013-01", "location_type": "Force", "outcome_status": null}, {"category": "anti-social-behaviour", "persistent_id": "", "location_subtype": "", "id": 20831098, "location": {"latitude": "51.496940", "street": {"id": 954187, "name": "On or near Mellish Street"}, "longitude": "-0.022017"}, "context": "", "month": "2013-01", "location_type": "Force", "outcome_status": null}, {"category": "anti-social-behaviour", "persistent_id": "", "location_subtype": "", "id": 20831273, "location": {"latitude": "51.514409", "street": {"id": 955639, "name": "On or near Southwater Close"}, "longitude": "-0.030873"}, "context": "", "month": "2013-01", "location_type": "Force", "outcome_status": null}, {"category": "anti-social-behaviour", "persistent_id": "", "location_subtype": "", "id": 20831274, "location": {"latitude": "51.514409", "street": {"id": 955639, "name": "On or near Southwater Close"}, "longitude": "-0.030873"}, "context": "", "month": "2013-01", "location_type": "Force", "outcome_status": null}, {"category": "anti-social-behaviour", "persistent_id": "", "location_subtype": "", "id": 20831095, "location": {"latitude": "51.517770", "street": {"id": 961929, "name": "On or near Hawgood Street"}, "longitude": "-0.020610"}, "context": "", "month": "2013-01", "location_type": "Force", "outcome_status": null}, {"category": "anti-social-behaviour", "persistent_id": "", "location_subtype": "", "id": 20831275, "location": {"latitude": "51.514409", "street": {"id": 955639, "name": "On or near Southwater Close"}, "longitude": "-0.030873"}, "context": "", "month": "2013-01", "location_type": "Force", "outcome_status": null}, {"category": "anti-social-behaviour", "persistent_id": "", "location_subtype": "", "id": 20831046, "location": {"latitude": "51.517567", "street": {"id": 962007, "name": "On or near Pioneer Close"}, "longitude": "-0.018168"}, "context": "", "month": "2013-01", "location_type": "Force", "outcome_status": null}, {"category": "anti-social-behaviour", "persistent_id": "", "location_subtype": "", "id": 20831044, "location": {"latitude": "51.517567", "street": {"id": 962007, "name": "On or near Pioneer Close"}, "longitude": "-0.018168"}, "context": "", "month": "2013-01", "location_type": "Force", "outcome_status": null}, {"category": "anti-social-behaviour", "persistent_id": "", "location_subtype": "", "id": 20831040, "location": {"latitude": "51.516236", "street": {"id": 955471, "name": "On or near Brabazon Street"}, "longitude": "-0.018168"}, "context": "", "month": "2013-01", "location_type": "Force", "outcome_status": null}, {"category": "anti-social-behaviour", "persistent_id": "", "location_subtype": "", "id": 20831276, "location": {"latitude": "51.514409", "street": {"id": 955639, "name": "On or near Southwater Close"}, "longitude": "-0.030873"}, "context": "", "month": "2013-01", "location_type": "Force", "outcome_status": null}, {"category": "anti-social-behaviour", "persistent_id": "", "location_subtype": "", "id": 20831278, "location": {"latitude": "51.514409", "street": {"id": 955639, "name": "On or near Southwater Close"}, "longitude": "-0.030873"}, "context": "", "month": "2013-01", "location_type": "Force", "outcome_status": null}, {"category": "anti-social-behaviour", "persistent_id": "", "location_subtype": "", "id": 20831277, "location": {"latitude": "51.514409", "street": {"id": 955639, "name": "On or near Southwater Close"}, "longitude": "-0.030873"}, "context": "", "month": "2013-01", "location_type": "Force", "outcome_status": null}, {"category": "anti-social-behaviour", "persistent_id": "", "location_subtype": "", "id": 20830855, "location": {"latitude": "51.511091", "street": {"id": 955481, "name": "On or near Rosemary Drive"}, "longitude": "-0.002697"}, "context": "", "month": "2013-01", "location_type": "Force", "outcome_status": null}, {"category": "anti-social-behaviour", "persistent_id": "", "location_subtype": "", "id": 20830849, "location": {"latitude": "51.514688", "street": {"id": 955546, "name": "On or near Oban Street"}, "longitude": "-0.000580"}, "context": "", "month": "2013-01", "location_type": "Force", "outcome_status": null}, {"category": "anti-social-behaviour", "persistent_id": "", "location_subtype": "", "id": 20830961, "location": {"latitude": "51.518985", "street": {"id": 962015, "name": "On or near Celtic Street"}, "longitude": "-0.012658"}, "context": "", "month": "2013-01", "location_type": "Force", "outcome_status": null}, {"category": "anti-social-behaviour", "persistent_id": "", "location_subtype": "", "id": 20830875, "location": {"latitude": "51.512490", "street": {"id": 955507, "name": "On or near Athol Square"}, "longitude": "-0.006729"}, "context": "", "month": "2013-01", "location_type": "Force", "outcome_status": null}, {"category": "anti-social-behaviour", "persistent_id": "", "location_subtype": "", "id": 20822544, "location": {"latitude": "51.498473", "street": {"id": 954404, "name": "On or near Edmund Halley Way"}, "longitude": "0.004747"}, "context": "", "month": "2013-01", "location_type": "Force", "outcome_status": null}, {"category": "anti-social-behaviour", "persistent_id": "", "location_subtype": "", "id": 20822537, "location": {"latitude": "51.501027", "street": {"id": 954405, "name": "On or near Cutter Lane"}, "longitude": "0.007338"}, "context": "", "month": "2013-01", "location_type": "Force", "outcome_status": null}, {"category": "anti-social-behaviour", "persistent_id": "", "location_subtype": "", "id": 20830858, "location": {"latitude": "51.512178", "street": {"id": 955499, "name": "On or near East India Dock Road"}, "longitude": "-0.003197"}, "context": "", "month": "2013-01", "location_type": "Force", "outcome_status": null}, {"category": "anti-social-behaviour", "persistent_id": "", "location_subtype": "", "id": 20822536, "location": {"latitude": "51.501027", "street": {"id": 954405, "name": "On or near Cutter Lane"}, "longitude": "0.007338"}, "context": "", "month": "2013-01", "location_type": "Force", "outcome_status": null}, {"category": "anti-social-behaviour", "persistent_id": "", "location_subtype": "", "id": 20831121, "location": {"latitude": "51.496392", "street": {"id": 954183, "name": "On or near Tiller Road"}, "longitude": "-0.022617"}, "context": "", "month": "2013-01", "location_type": "Force", "outcome_status": null}, {"category": "anti-social-behaviour", "persistent_id": "", "location_subtype": "LU STATION", "id": 38333767, "location": {"latitude": "51.515400", "street": {"id": 1461134, "name": "Langdon Park"}, "longitude": "-0.014219"}, "context": "", "month": "2013-01", "location_type": "BTP", "outcome_status": null}, {"category": "anti-social-behaviour", "persistent_id": "", "location_subtype": "", "id": 20830969, "location": {"latitude": "51.514053", "street": {"id": 955440, "name": "On or near Hay Currie Street"}, "longitude": "-0.013536"}, "context": "", "month": "2013-01", "location_type": "Force", "outcome_status": null}, {"category": "anti-social-behaviour", "persistent_id": "", "location_subtype": "", "id": 20822535, "location": {"latitude": "51.501027", "street": {"id": 954405, "name": "On or near Cutter Lane"}, "longitude": "0.007338"}, "context": "", "month": "2013-01", "location_type": "Force", "outcome_status": null}, {"category": "anti-social-behaviour", "persistent_id": "", "location_subtype": "", "id": 20831152, "location": {"latitude": "51.512316", "street": {"id": 955679, "name": "On or near Canton Street"}, "longitude": "-0.023022"}, "context": "", "month": "2013-01", "location_type": "Force", "outcome_status": null}, {"category": "anti-social-behaviour", "persistent_id": "", "location_subtype": "", "id": 20831163, "location": {"latitude": "51.513276", "street": {"id": 955736, "name": "On or near Hind Grove"}, "longitude": "-0.023399"}, "context": "", "month": "2013-01", "location_type": "Force", "outcome_status": null}, {"category": "anti-social-behaviour", "persistent_id": "", "location_subtype": "", "id": 20831164, "location": {"latitude": "51.513276", "street": {"id": 955736, "name": "On or near Hind Grove"}, "longitude": "-0.023399"}, "context": "", "month": "2013-01", "location_type": "Force", "outcome_status": null}, {"category": "anti-social-behaviour", "persistent_id": "", "location_subtype": "", "id": 20831165, "location": {"latitude": "51.513276", "street": {"id": 955736, "name": "On or near Hind Grove"}, "longitude": "-0.023399"}, "context": "", "month": "2013-01", "location_type": "Force", "outcome_status": null}, {"category": "anti-social-behaviour", "persistent_id": "", "location_subtype": "", "id": 20830877, "location": {"latitude": "51.513394", "street": {"id": 955492, "name": "On or near Kirkmichael Road"}, "longitude": "-0.005926"}, "context": "", "month": "2013-01", "location_type": "Force", "outcome_status": null}, {"category": "anti-social-behaviour", "persistent_id": "", "location_subtype": "", "id": 20831139, "location": {"latitude": "51.518149", "street": {"id": 961931, "name": "On or near Furze Street"}, "longitude": "-0.021775"}, "context": "", "month": "2013-01", "location_type": "Force", "outcome_status": null}, {"category": "anti-social-behaviour", "persistent_id": "", "location_subtype": "", "id": 20831161, "location": {"latitude": "51.493139", "street": {"id": 954298, "name": "On or near Dockers Tanner Road"}, "longitude": "-0.024342"}, "context": "", "month": "2013-01", "location_type": "Force", "outcome_status": null}, {"category": "anti-social-behaviour", "persistent_id": "", "location_subtype": "", "id": 20831146, "location": {"latitude": "51.500526", "street": {"id": 954312, "name": "On or near Byng Street"}, "longitude": "-0.023518"}, "context": "", "month": "2013-01", "location_type": "Force", "outcome_status": null}, {"category": "anti-social-behaviour", "persistent_id": "", "location_subtype": "LU STATION", "id": 38333684, "location": {"latitude": "51.507800", "street": {"id": 1461674, "name": "Poplar"}, "longitude": "-0.017611"}, "context": "", "month": "2013-01", "location_type": "BTP", "outcome_status": null}, {"category": "anti-social-behaviour", "persistent_id": "", "location_subtype": "", "id": 20830848, "location": {"latitude": "51.513254", "street": {"id": 955510, "name": "On or near Abbott Road"}, "longitude": "0.000698"}, "context": "", "month": "2013-01", "location_type": "Force", "outcome_status": null}, {"category": "anti-social-behaviour", "persistent_id": "", "location_subtype": "", "id": 20831147, "location": {"latitude": "51.500526", "street": {"id": 954312, "name": "On or near Byng Street"}, "longitude": "-0.023518"}, "context": "", "month": "2013-01", "location_type": "Force", "outcome_status": null}, {"category": "anti-social-behaviour", "persistent_id": "", "location_subtype": "", "id": 20831148, "location": {"latitude": "51.498548", "street": {"id": 954203, "name": "On or near Malabar Street"}, "longitude": "-0.023503"}, "context": "", "month": "2013-01", "location_type": "Force", "outcome_status": null}, {"category": "anti-social-behaviour", "persistent_id": "", "location_subtype": "", "id": 20831141, "location": {"latitude": "51.498232", "street": {"id": 954211, "name": "On or near Alpha Grove"}, "longitude": "-0.022926"}, "context": "", "month": "2013-01", "location_type": "Force", "outcome_status": null}, {"category": "anti-social-behaviour", "persistent_id": "", "location_subtype": "", "id": 20831173, "location": {"latitude": "51.497200", "street": {"id": 954190, "name": "On or near Cheval Street"}, "longitude": "-0.024627"}, "context": "", "month": "2013-01", "location_type": "Force", "outcome_status": null}, {"category": "anti-social-behaviour", "persistent_id": "", "location_subtype": "", "id": 20830879, "location": {"latitude": "51.516555", "street": {"id": 955540, "name": "On or near Nairn Street"}, "longitude": "-0.007791"}, "context": "", "month": "2013-01", "location_type": "Force", "outcome_status": null}, {"category": "anti-social-behaviour", "persistent_id": "", "location_subtype": "", "id": 20831194, "location": {"latitude": "51.496157", "street": {"id": 954191, "name": "On or near Caravel Close"}, "longitude": "-0.025162"}, "context": "", "month": "2013-01", "location_type": "Force", "outcome_status": null}, {"category": "anti-social-behaviour", "persistent_id": "", "location_subtype": "", "id": 20831205, "location": {"latitude": "51.508651", "street": {"id": 955645, "name": "On or near Premiere Place"}, "longitude": "-0.026438"}, "context": "", "month": "2013-01", "location_type": "Force", "outcome_status": null}, {"category": "anti-social-behaviour", "persistent_id": "", "location_subtype": "", "id": 20831182, "location": {"latitude": "51.509487", "street": {"id": 955649, "name": "On or near Pennyfields"}, "longitude": "-0.023736"}, "context": "", "month": "2013-01", "location_type": "Force", "outcome_status": null}, {"category": "anti-social-behaviour", "persistent_id": "", "location_subtype": "", "id": 20831183, "location": {"latitude": "51.509487", "street": {"id": 955649, "name": "On or near Pennyfields"}, "longitude": "-0.023736"}, "context": "", "month": "2013-01", "location_type": "Force", "outcome_status": null}, {"category": "anti-social-behaviour", "persistent_id": "", "location_subtype": "", "id": 20831211, "location": {"latitude": "51.514069", "street": {"id": 955673, "name": "On or near Dod Street"}, "longitude": "-0.026146"}, "context": "", "month": "2013-01", "location_type": "Force", "outcome_status": null}, {"category": "anti-social-behaviour", "persistent_id": "", "location_subtype": "", "id": 20831190, "location": {"latitude": "51.510532", "street": {"id": 955682, "name": "On or near Birchfield Street"}, "longitude": "-0.025449"}, "context": "", "month": "2013-01", "location_type": "Force", "outcome_status": null}, {"category": "anti-social-behaviour", "persistent_id": "", "location_subtype": "", "id": 20831201, "location": {"latitude": "51.499207", "street": {"id": 954204, "name": "On or near Hutching's Street"}, "longitude": "-0.026370"}, "context": "", "month": "2013-01", "location_type": "Force", "outcome_status": null}, {"category": "anti-social-behaviour", "persistent_id": "", "location_subtype": "", "id": 20830890, "location": {"latitude": "51.503473", "street": {"id": 955560, "name": "On or near Lancaster Drive"}, "longitude": "-0.008448"}, "context": "", "month": "2013-01", "location_type": "Force", "outcome_status": null}, {"category": "anti-social-behaviour", "persistent_id": "", "location_subtype": "", "id": 20830980, "location": {"latitude": "51.509847", "street": {"id": 955449, "name": "On or near Cottage Street"}, "longitude": "-0.014742"}, "context": "", "month": "2013-01", "location_type": "Force", "outcome_status": null}, {"category": "anti-social-behaviour", "persistent_id": "", "location_subtype": "", "id": 20830986, "location": {"latitude": "51.508594", "street": {"id": 955430, "name": "On or near Simpson's Road"}, "longitude": "-0.015099"}, "context": "", "month": "2013-01", "location_type": "Force", "outcome_status": null}, {"category": "anti-social-behaviour", "persistent_id": "", "location_subtype": "", "id": 20830987, "location": {"latitude": "51.508594", "street": {"id": 955430, "name": "On or near Simpson's Road"}, "longitude": "-0.015099"}, "context": "", "month": "2013-01", "location_type": "Force", "outcome_status": null}, {"category": "anti-social-behaviour", "persistent_id": "", "location_subtype": "", "id": 20830975, "location": {"latitude": "51.517189", "street": {"id": 962014, "name": "On or near Chadbourn Street"}, "longitude": "-0.013904"}, "context": "", "month": "2013-01", "location_type": "Force", "outcome_status": null}, {"category": "anti-social-behaviour", "persistent_id": "", "location_subtype": "", "id": 20830910, "location": {"latitude": "51.517772", "street": {"id": 962022, "name": "On or near Everest Place"}, "longitude": "-0.010635"}, "context": "", "month": "2013-01", "location_type": "Force", "outcome_status": null}, {"category": "anti-social-behaviour", "persistent_id": "", "location_subtype": "", "id": 20830977, "location": {"latitude": "51.511749", "street": {"id": 955459, "name": "On or near Supermarket"}, "longitude": "-0.013939"}, "context": "", "month": "2013-01", "location_type": "Force", "outcome_status": null}, {"category": "anti-social-behaviour", "persistent_id": "", "location_subtype": "", "id": 20830978, "location": {"latitude": "51.511749", "street": {"id": 955459, "name": "On or near Supermarket"}, "longitude": "-0.013939"}, "context": "", "month": "2013-01", "location_type": "Force", "outcome_status": null}, {"category": "anti-social-behaviour", "persistent_id": "", "location_subtype": "", "id": 20830896, "location": {"latitude": "51.513460", "street": {"id": 955516, "name": "On or near Pedestrian Subway"}, "longitude": "-0.008243"}, "context": "", "month": "2013-01", "location_type": "Force", "outcome_status": null}, {"category": "anti-social-behaviour", "persistent_id": "", "location_subtype": "", "id": 20830894, "location": {"latitude": "51.498201", "street": {"id": 954346, "name": "On or near Roserton Street"}, "longitude": "-0.009917"}, "context": "", "month": "2013-01", "location_type": "Force", "outcome_status": null}, {"category": "anti-social-behaviour", "persistent_id": "", "location_subtype": "", "id": 20830895, "location": {"latitude": "51.498201", "street": {"id": 954346, "name": "On or near Roserton Street"}, "longitude": "-0.009917"}, "context": "", "month": "2013-01", "location_type": "Force", "outcome_status": null}, {"category": "anti-social-behaviour", "persistent_id": "", "location_subtype": "", "id": 20830912, "location": {"latitude": "51.510017", "street": {"id": 955531, "name": "On or near Bazely Street"}, "longitude": "-0.010930"}, "context": "", "month": "2013-01", "location_type": "Force", "outcome_status": null}, {"category": "anti-social-behaviour", "persistent_id": "", "location_subtype": "", "id": 20830913, "location": {"latitude": "51.510017", "street": {"id": 955531, "name": "On or near Bazely Street"}, "longitude": "-0.010930"}, "context": "", "month": "2013-01", "location_type": "Force", "outcome_status": null}, {"category": "anti-social-behaviour", "persistent_id": "", "location_subtype": "", "id": 20830924, "location": {"latitude": "51.508782", "street": {"id": 955521, "name": "On or near Poplar High Street"}, "longitude": "-0.010782"}, "context": "", "month": "2013-01", "location_type": "Force", "outcome_status": null}, {"category": "anti-social-behaviour", "persistent_id": "", "location_subtype": "", "id": 20831033, "location": {"latitude": "51.510639", "street": {"id": 955436, "name": "On or near Malam Gardens"}, "longitude": "-0.018498"}, "context": "", "month": "2013-01", "location_type": "Force", "outcome_status": null}, {"category": "anti-social-behaviour", "persistent_id": "", "location_subtype": "", "id": 20831034, "location": {"latitude": "51.510639", "street": {"id": 955436, "name": "On or near Malam Gardens"}, "longitude": "-0.018498"}, "context": "", "month": "2013-01", "location_type": "Force", "outcome_status": null}, {"category": "anti-social-behaviour", "persistent_id": "", "location_subtype": "", "id": 20831021, "location": {"latitude": "51.508956", "street": {"id": 955428, "name": "On or near Stoneyard Lane"}, "longitude": "-0.018931"}, "context": "", "month": "2013-01", "location_type": "Force", "outcome_status": null}, {"category": "anti-social-behaviour", "persistent_id": "", "location_subtype": "", "id": 20831024, "location": {"latitude": "51.517839", "street": {"id": 962018, "name": "On or near Balladier Walk"}, "longitude": "-0.017248"}, "context": "", "month": "2013-01", "location_type": "Force", "outcome_status": null}, {"category": "anti-social-behaviour", "persistent_id": "", "location_subtype": "", "id": 20831020, "location": {"latitude": "51.515741", "street": {"id": 955465, "name": "On or near Hobday Street"}, "longitude": "-0.017051"}, "context": "", "month": "2013-01", "location_type": "Force", "outcome_status": null}, {"category": "anti-social-behaviour", "persistent_id": "", "location_subtype": "", "id": 20831011, "location": {"latitude": "51.513748", "street": {"id": 955450, "name": "On or near Cordelia Street"}, "longitude": "-0.017253"}, "context": "", "month": "2013-01", "location_type": "Force", "outcome_status": null}, {"category": "anti-social-behaviour", "persistent_id": "", "location_subtype": "", "id": 20831031, "location": {"latitude": "51.499817", "street": {"id": 954367, "name": "On or near Pan Penisula Square"}, "longitude": "-0.018261"}, "context": "", "month": "2013-01", "location_type": "Force", "outcome_status": null}, {"category": "anti-social-behaviour", "persistent_id": "", "location_subtype": "", "id": 20831167, "location": {"latitude": "51.493139", "street": {"id": 954298, "name": "On or near Dockers Tanner Road"}, "longitude": "-0.024342"}, "context": "", "month": "2013-01", "location_type": "Force", "outcome_status": null}, {"category": "anti-social-behaviour", "persistent_id": "", "location_subtype": "", "id": 20831168, "location": {"latitude": "51.493139", "street": {"id": 954298, "name": "On or near Dockers Tanner Road"}, "longitude": "-0.024342"}, "context": "", "month": "2013-01", "location_type": "Force", "outcome_status": null}, {"category": "anti-social-behaviour", "persistent_id": "", "location_subtype": "", "id": 20831169, "location": {"latitude": "51.493139", "street": {"id": 954298, "name": "On or near Dockers Tanner Road"}, "longitude": "-0.024342"}, "context": "", "month": "2013-01", "location_type": "Force", "outcome_status": null}, {"category": "anti-social-behaviour", "persistent_id": "", "location_subtype": "", "id": 20831170, "location": {"latitude": "51.493139", "street": {"id": 954298, "name": "On or near Dockers Tanner Road"}, "longitude": "-0.024342"}, "context": "", "month": "2013-01", "location_type": "Force", "outcome_status": null}, {"category": "anti-social-behaviour", "persistent_id": "", "location_subtype": "", "id": 20831171, "location": {"latitude": "51.493139", "street": {"id": 954298, "name": "On or near Dockers Tanner Road"}, "longitude": "-0.024342"}, "context": "", "month": "2013-01", "location_type": "Force", "outcome_status": null}, {"category": "anti-social-behaviour", "persistent_id": "", "location_subtype": "", "id": 20831058, "location": {"latitude": "51.510039", "street": {"id": 955425, "name": "On or near Wade's Place"}, "longitude": "-0.019158"}, "context": "", "month": "2013-01", "location_type": "Force", "outcome_status": null}, {"category": "anti-social-behaviour", "persistent_id": "", "location_subtype": "", "id": 20831176, "location": {"latitude": "51.499207", "street": {"id": 954204, "name": "On or near Hutching's Street"}, "longitude": "-0.026370"}, "context": "", "month": "2013-01", "location_type": "Force", "outcome_status": null}, {"category": "anti-social-behaviour", "persistent_id": "", "location_subtype": "", "id": 20831200, "location": {"latitude": "51.499207", "street": {"id": 954204, "name": "On or near Hutching's Street"}, "longitude": "-0.026370"}, "context": "", "month": "2013-01", "location_type": "Force", "outcome_status": null}, {"category": "anti-social-behaviour", "persistent_id": "", "location_subtype": "", "id": 20830956, "location": {"latitude": "51.504674", "street": {"id": 955563, "name": "On or near The North Colonade"}, "longitude": "-0.014592"}, "context": "", "month": "2013-01", "location_type": "Force", "outcome_status": null}, {"category": "anti-social-behaviour", "persistent_id": "", "location_subtype": "", "id": 20830874, "location": {"latitude": "51.506406", "street": {"id": 955496, "name": "On or near Gaselee Street"}, "longitude": "-0.006966"}, "context": "", "month": "2013-01", "location_type": "Force", "outcome_status": null}, {"category": "anti-social-behaviour", "persistent_id": "", "location_subtype": "", "id": 20830883, "location": {"latitude": "51.506406", "street": {"id": 955496, "name": "On or near Gaselee Street"}, "longitude": "-0.006966"}, "context": "", "month": "2013-01", "location_type": "Force", "outcome_status": null}, {"category": "anti-social-behaviour", "persistent_id": "", "location_subtype": "", "id": 20830960, "location": {"latitude": "51.518985", "street": {"id": 962015, "name": "On or near Celtic Street"}, "longitude": "-0.012658"}, "context": "", "month": "2013-01", "location_type": "Force", "outcome_status": null}, {"category": "anti-social-behaviour", "persistent_id": "", "location_subtype": "", "id": 20830897, "location": {"latitude": "51.502838", "street": {"id": 954349, "name": "On or near Lovegrove Walk"}, "longitude": "-0.009225"}, "context": "", "month": "2013-01", "location_type": "Force", "outcome_status": null}, {"category": "anti-social-behaviour", "persistent_id": "", "location_subtype": "", "id": 20830847, "location": {"latitude": "51.513254", "street": {"id": 955510, "name": "On or near Abbott Road"}, "longitude": "0.000698"}, "context": "", "month": "2013-01", "location_type": "Force", "outcome_status": null}, {"category": "anti-social-behaviour", "persistent_id": "", "location_subtype": "", "id": 20830898, "location": {"latitude": "51.502838", "street": {"id": 954349, "name": "On or near Lovegrove Walk"}, "longitude": "-0.009225"}, "context": "", "month": "2013-01", "location_type": "Force", "outcome_status": null}, {"category": "anti-social-behaviour", "persistent_id": "", "location_subtype": "", "id": 20830880, "location": {"latitude": "51.514465", "street": {"id": 955497, "name": "On or near Findhorn Street"}, "longitude": "-0.007061"}, "context": "", "month": "2013-01", "location_type": "Force", "outcome_status": null}, {"category": "anti-social-behaviour", "persistent_id": "", "location_subtype": "", "id": 20831107, "location": {"latitude": "51.496940", "street": {"id": 954187, "name": "On or near Mellish Street"}, "longitude": "-0.022017"}, "context": "", "month": "2013-01", "location_type": "Force", "outcome_status": null}, {"category": "anti-social-behaviour", "persistent_id": "", "location_subtype": "", "id": 20830902, "location": {"latitude": "51.500063", "street": {"id": 954350, "name": "On or near Lawn House Close"}, "longitude": "-0.010485"}, "context": "", "month": "2013-01", "location_type": "Force", "outcome_status": null}, {"category": "anti-social-behaviour", "persistent_id": "", "location_subtype": "", "id": 20831047, "location": {"latitude": "51.517567", "street": {"id": 962007, "name": "On or near Pioneer Close"}, "longitude": "-0.018168"}, "context": "", "month": "2013-01", "location_type": "Force", "outcome_status": null}, {"category": "anti-social-behaviour", "persistent_id": "", "location_subtype": "", "id": 20830872, "location": {"latitude": "51.505214", "street": {"id": 955552, "name": "On or near Yabsley Street"}, "longitude": "-0.006643"}, "context": "", "month": "2013-01", "location_type": "Force", "outcome_status": null}, {"category": "anti-social-behaviour", "persistent_id": "", "location_subtype": "", "id": 20831045, "location": {"latitude": "51.511215", "street": {"id": 955439, "name": "On or near Jeremiah Street"}, "longitude": "-0.018502"}, "context": "", "month": "2013-01", "location_type": "Force", "outcome_status": null}, {"category": "anti-social-behaviour", "persistent_id": "", "location_subtype": "", "id": 20829082, "location": {"latitude": "51.511091", "street": {"id": 955481, "name": "On or near Rosemary Drive"}, "longitude": "-0.002697"}, "context": "", "month": "2013-01", "location_type": "Force", "outcome_status": null}, {"category": "anti-social-behaviour", "persistent_id": "", "location_subtype": "", "id": 20830853, "location": {"latitude": "51.510727", "street": {"id": 955480, "name": "On or near Saffron Avenue"}, "longitude": "-0.001921"}, "context": "", "month": "2013-01", "location_type": "Force", "outcome_status": null}, {"category": "anti-social-behaviour", "persistent_id": "", "location_subtype": "", "id": 20830935, "location": {"latitude": "51.514052", "street": {"id": 955528, "name": "On or near Burcham Street"}, "longitude": "-0.011864"}, "context": "", "month": "2013-01", "location_type": "Force", "outcome_status": null}, {"category": "anti-social-behaviour", "persistent_id": "", "location_subtype": "", "id": 20830854, "location": {"latitude": "51.511091", "street": {"id": 955481, "name": "On or near Rosemary Drive"}, "longitude": "-0.002697"}, "context": "", "month": "2013-01", "location_type": "Force", "outcome_status": null}, {"category": "anti-social-behaviour", "persistent_id": "", "location_subtype": "", "id": 20831069, "location": {"latitude": "51.511504", "street": {"id": 955456, "name": "On or near Annabel Close"}, "longitude": "-0.019138"}, "context": "", "month": "2013-01", "location_type": "Force", "outcome_status": null}, {"category": "anti-social-behaviour", "persistent_id": "", "location_subtype": "", "id": 20830963, "location": {"latitude": "51.511749", "street": {"id": 955459, "name": "On or near Supermarket"}, "longitude": "-0.013939"}, "context": "", "month": "2013-01", "location_type": "Force", "outcome_status": null}, {"category": "anti-social-behaviour", "persistent_id": "", "location_subtype": "", "id": 20830954, "location": {"latitude": "51.511814", "street": {"id": 955426, "name": "On or near Susannah Street"}, "longitude": "-0.012466"}, "context": "", "month": "2013-01", "location_type": "Force", "outcome_status": null}, {"category": "anti-social-behaviour", "persistent_id": "", "location_subtype": "", "id": 20830850, "location": {"latitude": "51.508751", "street": {"id": 955493, "name": "On or near John Smith Mews"}, "longitude": "-0.002065"}, "context": "", "month": "2013-01", "location_type": "Force", "outcome_status": null}, {"category": "anti-social-behaviour", "persistent_id": "", "location_subtype": "", "id": 20830851, "location": {"latitude": "51.508751", "street": {"id": 955493, "name": "On or near John Smith Mews"}, "longitude": "-0.002065"}, "context": "", "month": "2013-01", "location_type": "Force", "outcome_status": null}, {"category": "anti-social-behaviour", "persistent_id": "", "location_subtype": "", "id": 20830852, "location": {"latitude": "51.508751", "street": {"id": 955493, "name": "On or near John Smith Mews"}, "longitude": "-0.002065"}, "context": "", "month": "2013-01", "location_type": "Force", "outcome_status": null}, {"category": "anti-social-behaviour", "persistent_id": "", "location_subtype": "", "id": 20830859, "location": {"latitude": "51.507584", "street": {"id": 955485, "name": "On or near Paul Julius Close"}, "longitude": "-0.004292"}, "context": "", "month": "2013-01", "location_type": "Force", "outcome_status": null}, {"category": "anti-social-behaviour", "persistent_id": "", "location_subtype": "", "id": 20830881, "location": {"latitude": "51.512490", "street": {"id": 955507, "name": "On or near Athol Square"}, "longitude": "-0.006729"}, "context": "", "month": "2013-01", "location_type": "Force", "outcome_status": null}, {"category": "anti-social-behaviour", "persistent_id": "", "location_subtype": "", "id": 20830860, "location": {"latitude": "51.507584", "street": {"id": 955485, "name": "On or near Paul Julius Close"}, "longitude": "-0.004292"}, "context": "", "month": "2013-01", "location_type": "Force", "outcome_status": null}, {"category": "anti-social-behaviour", "persistent_id": "", "location_subtype": "", "id": 20830861, "location": {"latitude": "51.507584", "street": {"id": 955485, "name": "On or near Paul Julius Close"}, "longitude": "-0.004292"}, "context": "", "month": "2013-01", "location_type": "Force", "outcome_status": null}, {"category": "anti-social-behaviour", "persistent_id": "", "location_subtype": "", "id": 20830862, "location": {"latitude": "51.507584", "street": {"id": 955485, "name": "On or near Paul Julius Close"}, "longitude": "-0.004292"}, "context": "", "month": "2013-01", "location_type": "Force", "outcome_status": null}, {"category": "anti-social-behaviour", "persistent_id": "", "location_subtype": "", "id": 20830863, "location": {"latitude": "51.507584", "street": {"id": 955485, "name": "On or near Paul Julius Close"}, "longitude": "-0.004292"}, "context": "", "month": "2013-01", "location_type": "Force", "outcome_status": null}, {"category": "anti-social-behaviour", "persistent_id": "", "location_subtype": "", "id": 20831059, "location": {"latitude": "51.496236", "street": {"id": 954358, "name": "On or near Omega Close"}, "longitude": "-0.019728"}, "context": "", "month": "2013-01", "location_type": "Force", "outcome_status": null}, {"category": "anti-social-behaviour", "persistent_id": "", "location_subtype": "", "id": 20831172, "location": {"latitude": "51.493139", "street": {"id": 954298, "name": "On or near Dockers Tanner Road"}, "longitude": "-0.024342"}, "context": "", "month": "2013-01", "location_type": "Force", "outcome_status": null}, {"category": "anti-social-behaviour", "persistent_id": "", "location_subtype": "", "id": 20830885, "location": {"latitude": "51.498630", "street": {"id": 954343, "name": "On or near Capstan Square"}, "longitude": "-0.008155"}, "context": "", "month": "2013-01", "location_type": "Force", "outcome_status": null}, {"category": "anti-social-behaviour", "persistent_id": "", "location_subtype": "", "id": 20831060, "location": {"latitude": "51.496236", "street": {"id": 954358, "name": "On or near Omega Close"}, "longitude": "-0.019728"}, "context": "", "month": "2013-01", "location_type": "Force", "outcome_status": null}, {"category": "anti-social-behaviour", "persistent_id": "", "location_subtype": "", "id": 20831096, "location": {"latitude": "51.496940", "street": {"id": 954187, "name": "On or near Mellish Street"}, "longitude": "-0.022017"}, "context": "", "month": "2013-01", "location_type": "Force", "outcome_status": null}, {"category": "anti-social-behaviour", "persistent_id": "", "location_subtype": "", "id": 20831097, "location": {"latitude": "51.496940", "street": {"id": 954187, "name": "On or near Mellish Street"}, "longitude": "-0.022017"}, "context": "", "month": "2013-01", "location_type": "Force", "outcome_status": null}, {"category": "anti-social-behaviour", "persistent_id": "", "location_subtype": "", "id": 20831042, "location": {"latitude": "51.498406", "street": {"id": 954372, "name": "On or near Indescon Court"}, "longitude": "-0.019345"}, "context": "", "month": "2013-01", "location_type": "Force", "outcome_status": null}, {"category": "anti-social-behaviour", "persistent_id": "", "location_subtype": "", "id": 20831043, "location": {"latitude": "51.498406", "street": {"id": 954372, "name": "On or near Indescon Court"}, "longitude": "-0.019345"}, "context": "", "month": "2013-01", "location_type": "Force", "outcome_status": null}, {"category": "anti-social-behaviour", "persistent_id": "", "location_subtype": "", "id": 20831067, "location": {"latitude": "51.498406", "street": {"id": 954372, "name": "On or near Indescon Court"}, "longitude": "-0.019345"}, "context": "", "month": "2013-01", "location_type": "Force", "outcome_status": null}, {"category": "anti-social-behaviour", "persistent_id": "", "location_subtype": "", "id": 20831068, "location": {"latitude": "51.498406", "street": {"id": 954372, "name": "On or near Indescon Court"}, "longitude": "-0.019345"}, "context": "", "month": "2013-01", "location_type": "Force", "outcome_status": null}, {"category": "anti-social-behaviour", "persistent_id": "", "location_subtype": "", "id": 20831029, "location": {"latitude": "51.499817", "street": {"id": 954367, "name": "On or near Pan Penisula Square"}, "longitude": "-0.018261"}, "context": "", "month": "2013-01", "location_type": "Force", "outcome_status": null}, {"category": "anti-social-behaviour", "persistent_id": "", "location_subtype": "", "id": 20831311, "location": {"latitude": "51.512100", "street": {"id": 955574, "name": "On or near Norway Place"}, "longitude": "-0.033668"}, "context": "", "month": "2013-01", "location_type": "Force", "outcome_status": null}, {"category": "anti-social-behaviour", "persistent_id": "", "location_subtype": "", "id": 20831030, "location": {"latitude": "51.499817", "street": {"id": 954367, "name": "On or near Pan Penisula Square"}, "longitude": "-0.018261"}, "context": "", "month": "2013-01", "location_type": "Force", "outcome_status": null}, {"category": "anti-social-behaviour", "persistent_id": "", "location_subtype": "", "id": 20831084, "location": {"latitude": "51.499981", "street": {"id": 954200, "name": "On or near Mastmaker Road"}, "longitude": "-0.021035"}, "context": "", "month": "2013-01", "location_type": "Force", "outcome_status": null}, {"category": "anti-social-behaviour", "persistent_id": "", "location_subtype": "", "id": 20830942, "location": {"latitude": "51.518985", "street": {"id": 962021, "name": "On or near Teviot Street"}, "longitude": "-0.011606"}, "context": "", "month": "2013-01", "location_type": "Force", "outcome_status": null}, {"category": "anti-social-behaviour", "persistent_id": "", "location_subtype": "", "id": 20831085, "location": {"latitude": "51.499981", "street": {"id": 954200, "name": "On or near Mastmaker Road"}, "longitude": "-0.021035"}, "context": "", "month": "2013-01", "location_type": "Force", "outcome_status": null}, {"category": "anti-social-behaviour", "persistent_id": "", "location_subtype": "", "id": 20831086, "location": {"latitude": "51.499981", "street": {"id": 954200, "name": "On or near Mastmaker Road"}, "longitude": "-0.021035"}, "context": "", "month": "2013-01", "location_type": "Force", "outcome_status": null}, {"category": "anti-social-behaviour", "persistent_id": "", "location_subtype": "", "id": 20831041, "location": {"latitude": "51.499817", "street": {"id": 954367, "name": "On or near Pan Penisula Square"}, "longitude": "-0.018261"}, "context": "", "month": "2013-01", "location_type": "Force", "outcome_status": null}, {"category": "anti-social-behaviour", "persistent_id": "", "location_subtype": "", "id": 20831101, "location": {"latitude": "51.510081", "street": {"id": 955641, "name": "On or near Saltwell Street"}, "longitude": "-0.021130"}, "context": "", "month": "2013-01", "location_type": "Force", "outcome_status": null}, {"category": "anti-social-behaviour", "persistent_id": "", "location_subtype": "", "id": 20831119, "location": {"latitude": "51.503604", "street": {"id": 954205, "name": "On or near Heron Quays"}, "longitude": "-0.022593"}, "context": "", "month": "2013-01", "location_type": "Force", "outcome_status": null}, {"category": "anti-social-behaviour", "persistent_id": "", "location_subtype": "", "id": 20831120, "location": {"latitude": "51.503604", "street": {"id": 954205, "name": "On or near Heron Quays"}, "longitude": "-0.022593"}, "context": "", "month": "2013-01", "location_type": "Force", "outcome_status": null}, {"category": "anti-social-behaviour", "persistent_id": "", "location_subtype": "", "id": 20831124, "location": {"latitude": "51.501220", "street": {"id": 954212, "name": "On or near Admirals Way"}, "longitude": "-0.021471"}, "context": "", "month": "2013-01", "location_type": "Force", "outcome_status": null}, {"category": "anti-social-behaviour", "persistent_id": "", "location_subtype": "", "id": 20831125, "location": {"latitude": "51.501220", "street": {"id": 954212, "name": "On or near Admirals Way"}, "longitude": "-0.021471"}, "context": "", "month": "2013-01", "location_type": "Force", "outcome_status": null}, {"category": "anti-social-behaviour", "persistent_id": "", "location_subtype": "", "id": 20831126, "location": {"latitude": "51.501220", "street": {"id": 954212, "name": "On or near Admirals Way"}, "longitude": "-0.021471"}, "context": "", "month": "2013-01", "location_type": "Force", "outcome_status": null}, {"category": "anti-social-behaviour", "persistent_id": "", "location_subtype": "", "id": 20831127, "location": {"latitude": "51.501220", "street": {"id": 954212, "name": "On or near Admirals Way"}, "longitude": "-0.021471"}, "context": "", "month": "2013-01", "location_type": "Force", "outcome_status": null}, {"category": "anti-social-behaviour", "persistent_id": "", "location_subtype": "", "id": 20831010, "location": {"latitude": "51.504462", "street": {"id": 955566, "name": "On or near Shopping Area"}, "longitude": "-0.017454"}, "context": "", "month": "2013-01", "location_type": "Force", "outcome_status": null}, {"category": "anti-social-behaviour", "persistent_id": "", "location_subtype": "", "id": 20831140, "location": {"latitude": "51.498232", "street": {"id": 954211, "name": "On or near Alpha Grove"}, "longitude": "-0.022926"}, "context": "", "month": "2013-01", "location_type": "Force", "outcome_status": null}, {"category": "anti-social-behaviour", "persistent_id": "", "location_subtype": "", "id": 20831159, "location": {"latitude": "51.507806", "street": {"id": 955666, "name": "On or near Hertsmere Road"}, "longitude": "-0.023290"}, "context": "", "month": "2013-01", "location_type": "Force", "outcome_status": null}, {"category": "anti-social-behaviour", "persistent_id": "", "location_subtype": "", "id": 20831160, "location": {"latitude": "51.507806", "street": {"id": 955666, "name": "On or near Hertsmere Road"}, "longitude": "-0.023290"}, "context": "", "month": "2013-01", "location_type": "Force", "outcome_status": null}, {"category": "anti-social-behaviour", "persistent_id": "", "location_subtype": "", "id": 20831310, "location": {"latitude": "51.512100", "street": {"id": 955574, "name": "On or near Norway Place"}, "longitude": "-0.033668"}, "context": "", "month": "2013-01", "location_type": "Force", "outcome_status": null}, {"category": "anti-social-behaviour", "persistent_id": "", "location_subtype": "", "id": 20831191, "location": {"latitude": "51.507425", "street": {"id": 955680, "name": "On or near Cannon Drive"}, "longitude": "-0.025727"}, "context": "", "month": "2013-01", "location_type": "Force", "outcome_status": null}, {"category": "anti-social-behaviour", "persistent_id": "", "location_subtype": "", "id": 20831192, "location": {"latitude": "51.507425", "street": {"id": 955680, "name": "On or near Cannon Drive"}, "longitude": "-0.025727"}, "context": "", "month": "2013-01", "location_type": "Force", "outcome_status": null}, {"category": "anti-social-behaviour", "persistent_id": "", "location_subtype": "", "id": 20831309, "location": {"latitude": "51.512100", "street": {"id": 955574, "name": "On or near Norway Place"}, "longitude": "-0.033668"}, "context": "", "month": "2013-01", "location_type": "Force", "outcome_status": null}, {"category": "anti-social-behaviour", "persistent_id": "", "location_subtype": "", "id": 20831193, "location": {"latitude": "51.505470", "street": {"id": 955711, "name": "On or near West India Avenue"}, "longitude": "-0.024976"}, "context": "", "month": "2013-01", "location_type": "Force", "outcome_status": null}, {"category": "anti-social-behaviour", "persistent_id": "", "location_subtype": "", "id": 20831199, "location": {"latitude": "51.502005", "street": {"id": 954208, "name": "On or near Chandlers Mews"}, "longitude": "-0.026422"}, "context": "", "month": "2013-01", "location_type": "Force", "outcome_status": null}, {"category": "anti-social-behaviour", "persistent_id": "", "location_subtype": "", "id": 20831283, "location": {"latitude": "51.511207", "street": {"id": 955656, "name": "On or near Newell Street"}, "longitude": "-0.031357"}, "context": "", "month": "2013-01", "location_type": "Force", "outcome_status": null}, {"category": "anti-social-behaviour", "persistent_id": "", "location_subtype": "", "id": 20831282, "location": {"latitude": "51.511207", "street": {"id": 955656, "name": "On or near Newell Street"}, "longitude": "-0.031357"}, "context": "", "month": "2013-01", "location_type": "Force", "outcome_status": null}, {"category": "anti-social-behaviour", "persistent_id": "", "location_subtype": "", "id": 20830941, "location": {"latitude": "51.518985", "street": {"id": 962021, "name": "On or near Teviot Street"}, "longitude": "-0.011606"}, "context": "", "month": "2013-01", "location_type": "Force", "outcome_status": null}, {"category": "anti-social-behaviour", "persistent_id": "", "location_subtype": "", "id": 20831288, "location": {"latitude": "51.508961", "street": {"id": 955685, "name": "On or near Barleycorn Way"}, "longitude": "-0.032074"}, "context": "", "month": "2013-01", "location_type": "Force", "outcome_status": null}, {"category": "anti-social-behaviour", "persistent_id": "", "location_subtype": "", "id": 20831204, "location": {"latitude": "51.508651", "street": {"id": 955645, "name": "On or near Premiere Place"}, "longitude": "-0.026438"}, "context": "", "month": "2013-01", "location_type": "Force", "outcome_status": null}, {"category": "anti-social-behaviour", "persistent_id": "", "location_subtype": "", "id": 20831076, "location": {"latitude": "51.491866", "street": {"id": 954307, "name": "On or near Barnsdale Avenue"}, "longitude": "-0.020839"}, "context": "", "month": "2013-01", "location_type": "Force", "outcome_status": null}, {"category": "anti-social-behaviour", "persistent_id": "", "location_subtype": "", "id": 20831082, "location": {"latitude": "51.491577", "street": {"id": 954285, "name": "On or near Sherwood Gardens"}, "longitude": "-0.021312"}, "context": "", "month": "2013-01", "location_type": "Force", "outcome_status": null}, {"category": "anti-social-behaviour", "persistent_id": "", "location_subtype": "", "id": 20830889, "location": {"latitude": "51.498630", "street": {"id": 954343, "name": "On or near Capstan Square"}, "longitude": "-0.008155"}, "context": "", "month": "2013-01", "location_type": "Force", "outcome_status": null}, {"category": "anti-social-behaviour", "persistent_id": "", "location_subtype": "", "id": 20831083, "location": {"latitude": "51.491577", "street": {"id": 954285, "name": "On or near Sherwood Gardens"}, "longitude": "-0.021312"}, "context": "", "month": "2013-01", "location_type": "Force", "outcome_status": null}, {"category": "anti-social-behaviour", "persistent_id": "", "location_subtype": "", "id": 20831287, "location": {"latitude": "51.508961", "street": {"id": 955685, "name": "On or near Barleycorn Way"}, "longitude": "-0.032074"}, "context": "", "month": "2013-01", "location_type": "Force", "outcome_status": null}, {"category": "anti-social-behaviour", "persistent_id": "", "location_subtype": "", "id": 20831102, "location": {"latitude": "51.510081", "street": {"id": 955641, "name": "On or near Saltwell Street"}, "longitude": "-0.021130"}, "context": "", "month": "2013-01", "location_type": "Force", "outcome_status": null}, {"category": "anti-social-behaviour", "persistent_id": "", "location_subtype": "", "id": 20831166, "location": {"latitude": "51.516976", "street": {"id": 961926, "name": "On or near Kilner Street"}, "longitude": "-0.023628"}, "context": "", "month": "2013-01", "location_type": "Force", "outcome_status": null}, {"category": "anti-social-behaviour", "persistent_id": "", "location_subtype": "", "id": 20830846, "location": {"latitude": "51.514087", "street": {"id": 955309, "name": "On or near Lanrick Road"}, "longitude": "0.001440"}, "context": "", "month": "2013-01", "location_type": "Force", "outcome_status": null}, {"category": "anti-social-behaviour", "persistent_id": "", "location_subtype": "", "id": 20831187, "location": {"latitude": "51.517604", "street": {"id": 961924, "name": "On or near Selsey Street"}, "longitude": "-0.024638"}, "context": "", "month": "2013-01", "location_type": "Force", "outcome_status": null}, {"category": "anti-social-behaviour", "persistent_id": "", "location_subtype": "", "id": 20831313, "location": {"latitude": "51.508916", "street": {"id": 955575, "name": "On or near Narrow Street"}, "longitude": "-0.033675"}, "context": "", "month": "2013-01", "location_type": "Force", "outcome_status": null}, {"category": "anti-social-behaviour", "persistent_id": "", "location_subtype": "", "id": 20831286, "location": {"latitude": "51.508961", "street": {"id": 955685, "name": "On or near Barleycorn Way"}, "longitude": "-0.032074"}, "context": "", "month": "2013-01", "location_type": "Force", "outcome_status": null}, {"category": "anti-social-behaviour", "persistent_id": "", "location_subtype": "", "id": 20830979, "location": {"latitude": "51.509847", "street": {"id": 955449, "name": "On or near Cottage Street"}, "longitude": "-0.014742"}, "context": "", "month": "2013-01", "location_type": "Force", "outcome_status": null}, {"category": "anti-social-behaviour", "persistent_id": "", "location_subtype": "", "id": 20831032, "location": {"latitude": "51.510639", "street": {"id": 955436, "name": "On or near Malam Gardens"}, "longitude": "-0.018498"}, "context": "", "month": "2013-01", "location_type": "Force", "outcome_status": null}, {"category": "anti-social-behaviour", "persistent_id": "", "location_subtype": "", "id": 20831179, "location": {"latitude": "51.509487", "street": {"id": 955649, "name": "On or near Pennyfields"}, "longitude": "-0.023736"}, "context": "", "month": "2013-01", "location_type": "Force", "outcome_status": null}, {"category": "anti-social-behaviour", "persistent_id": "", "location_subtype": "", "id": 20831180, "location": {"latitude": "51.509487", "street": {"id": 955649, "name": "On or near Pennyfields"}, "longitude": "-0.023736"}, "context": "", "month": "2013-01", "location_type": "Force", "outcome_status": null}, {"category": "anti-social-behaviour", "persistent_id": "", "location_subtype": "", "id": 20831181, "location": {"latitude": "51.509487", "street": {"id": 955649, "name": "On or near Pennyfields"}, "longitude": "-0.023736"}, "context": "", "month": "2013-01", "location_type": "Force", "outcome_status": null}, {"category": "anti-social-behaviour", "persistent_id": "", "location_subtype": "", "id": 20831053, "location": {"latitude": "51.510039", "street": {"id": 955425, "name": "On or near Wade's Place"}, "longitude": "-0.019158"}, "context": "", "month": "2013-01", "location_type": "Force", "outcome_status": null}, {"category": "anti-social-behaviour", "persistent_id": "", "location_subtype": "", "id": 20831054, "location": {"latitude": "51.510039", "street": {"id": 955425, "name": "On or near Wade's Place"}, "longitude": "-0.019158"}, "context": "", "month": "2013-01", "location_type": "Force", "outcome_status": null}, {"category": "anti-social-behaviour", "persistent_id": "", "location_subtype": "", "id": 20831055, "location": {"latitude": "51.510039", "street": {"id": 955425, "name": "On or near Wade's Place"}, "longitude": "-0.019158"}, "context": "", "month": "2013-01", "location_type": "Force", "outcome_status": null}, {"category": "anti-social-behaviour", "persistent_id": "", "location_subtype": "", "id": 20831056, "location": {"latitude": "51.510039", "street": {"id": 955425, "name": "On or near Wade's Place"}, "longitude": "-0.019158"}, "context": "", "month": "2013-01", "location_type": "Force", "outcome_status": null}, {"category": "anti-social-behaviour", "persistent_id": "", "location_subtype": "", "id": 20831057, "location": {"latitude": "51.510039", "street": {"id": 955425, "name": "On or near Wade's Place"}, "longitude": "-0.019158"}, "context": "", "month": "2013-01", "location_type": "Force", "outcome_status": null}, {"category": "anti-social-behaviour", "persistent_id": "", "location_subtype": "", "id": 20831230, "location": {"latitude": "51.510536", "street": {"id": 955644, "name": "On or near Rich Street"}, "longitude": "-0.027855"}, "context": "", "month": "2013-01", "location_type": "Force", "outcome_status": null}, {"category": "anti-social-behaviour", "persistent_id": "", "location_subtype": "", "id": 20831231, "location": {"latitude": "51.510536", "street": {"id": 955644, "name": "On or near Rich Street"}, "longitude": "-0.027855"}, "context": "", "month": "2013-01", "location_type": "Force", "outcome_status": null}, {"category": "anti-social-behaviour", "persistent_id": "", "location_subtype": "", "id": 20831233, "location": {"latitude": "51.510536", "street": {"id": 955644, "name": "On or near Rich Street"}, "longitude": "-0.027855"}, "context": "", "month": "2013-01", "location_type": "Force", "outcome_status": null}, {"category": "anti-social-behaviour", "persistent_id": "", "location_subtype": "", "id": 20825797, "location": {"latitude": "51.506405", "street": {"id": 955734, "name": "On or near Admiral Place"}, "longitude": "-0.036204"}, "context": "", "month": "2013-01", "location_type": "Force", "outcome_status": null}, {"category": "anti-social-behaviour", "persistent_id": "", "location_subtype": "", "id": 20825796, "location": {"latitude": "51.506246", "street": {"id": 955719, "name": "On or near Pageant Crescent"}, "longitude": "-0.034251"}, "context": "", "month": "2013-01", "location_type": "Force", "outcome_status": null}, {"category": "anti-social-behaviour", "persistent_id": "", "location_subtype": "", "id": 20825791, "location": {"latitude": "51.501967", "street": {"id": 954232, "name": "On or near Sandpiper Close"}, "longitude": "-0.033773"}, "context": "", "month": "2013-01", "location_type": "Force", "outcome_status": null}, {"category": "anti-social-behaviour", "persistent_id": "", "location_subtype": "", "id": 20831253, "location": {"latitude": "51.514833", "street": {"id": 955646, "name": "On or near Pixley Street"}, "longitude": "-0.029356"}, "context": "", "month": "2013-01", "location_type": "Force", "outcome_status": null}, {"category": "anti-social-behaviour", "persistent_id": "", "location_subtype": "", "id": 20830888, "location": {"latitude": "51.510047", "street": {"id": 955482, "name": "On or near Robin Hood Lane"}, "longitude": "-0.007398"}, "context": "", "month": "2013-01", "location_type": "Force", "outcome_status": null}, {"category": "anti-social-behaviour", "persistent_id": "", "location_subtype": "", "id": 20825793, "location": {"latitude": "51.497669", "street": {"id": 923899, "name": "On or near Odessa Street"}, "longitude": "-0.033799"}, "context": "", "month": "2013-01", "location_type": "Force", "outcome_status": null}, {"category": "anti-social-behaviour", "persistent_id": "", "location_subtype": "", "id": 20830876, "location": {"latitude": "51.496789", "street": {"id": 954329, "name": "On or near New Union Close"}, "longitude": "-0.007270"}, "context": "", "month": "2013-01", "location_type": "Force", "outcome_status": null}, {"category": "anti-social-behaviour", "persistent_id": "", "location_subtype": "", "id": 20830988, "location": {"latitude": "51.494611", "street": {"id": 954355, "name": "On or near Selsdon Way"}, "longitude": "-0.015087"}, "context": "", "month": "2013-01", "location_type": "Force", "outcome_status": null}, {"category": "anti-social-behaviour", "persistent_id": "", "location_subtype": "", "id": 20830984, "location": {"latitude": "51.496163", "street": {"id": 954357, "name": "On or near Pepper Street"}, "longitude": "-0.015394"}, "context": "", "month": "2013-01", "location_type": "Force", "outcome_status": null}, {"category": "anti-social-behaviour", "persistent_id": "", "location_subtype": "", "id": 20830982, "location": {"latitude": "51.496163", "street": {"id": 954357, "name": "On or near Pepper Street"}, "longitude": "-0.015394"}, "context": "", "month": "2013-01", "location_type": "Force", "outcome_status": null}, {"category": "anti-social-behaviour", "persistent_id": "", "location_subtype": "", "id": 20830981, "location": {"latitude": "51.496163", "street": {"id": 954357, "name": "On or near Pepper Street"}, "longitude": "-0.015394"}, "context": "", "month": "2013-01", "location_type": "Force", "outcome_status": null}, {"category": "anti-social-behaviour", "persistent_id": "", "location_subtype": "", "id": 20830922, "location": {"latitude": "51.496653", "street": {"id": 923567, "name": "On or near Galbraith Street"}, "longitude": "-0.011440"}, "context": "", "month": "2013-01", "location_type": "Force", "outcome_status": null}, {"category": "anti-social-behaviour", "persistent_id": "", "location_subtype": "", "id": 20830909, "location": {"latitude": "51.496039", "street": {"id": 954313, "name": "On or near Strattondale Street"}, "longitude": "-0.011308"}, "context": "", "month": "2013-01", "location_type": "Force", "outcome_status": null}, {"category": "anti-social-behaviour", "persistent_id": "", "location_subtype": "", "id": 20830908, "location": {"latitude": "51.496039", "street": {"id": 954313, "name": "On or near Strattondale Street"}, "longitude": "-0.011308"}, "context": "", "month": "2013-01", "location_type": "Force", "outcome_status": null}, {"category": "anti-social-behaviour", "persistent_id": "", "location_subtype": "", "id": 20830957, "location": {"latitude": "51.494882", "street": {"id": 954363, "name": "On or near Petrol Station"}, "longitude": "-0.013591"}, "context": "", "month": "2013-01", "location_type": "Force", "outcome_status": null}, {"category": "anti-social-behaviour", "persistent_id": "", "location_subtype": "", "id": 20830943, "location": {"latitude": "51.495625", "street": {"id": 954320, "name": "On or near Glengall Grove"}, "longitude": "-0.012349"}, "context": "", "month": "2013-01", "location_type": "Force", "outcome_status": null}, {"category": "anti-social-behaviour", "persistent_id": "", "location_subtype": "", "id": 20831239, "location": {"latitude": "51.510129", "street": {"id": 955634, "name": "On or near Stocks Place"}, "longitude": "-0.028247"}, "context": "", "month": "2013-01", "location_type": "Force", "outcome_status": null}, {"category": "anti-social-behaviour", "persistent_id": "", "location_subtype": "", "id": 20831241, "location": {"latitude": "51.510647", "street": {"id": 955668, "name": "On or near Gill Street"}, "longitude": "-0.029075"}, "context": "", "month": "2013-01", "location_type": "Force", "outcome_status": null}, {"category": "anti-social-behaviour", "persistent_id": "", "location_subtype": "", "id": 20831264, "location": {"latitude": "51.512580", "street": {"id": 955638, "name": "On or near St Anne Street"}, "longitude": "-0.029612"}, "context": "", "month": "2013-01", "location_type": "Force", "outcome_status": null}, {"category": "anti-social-behaviour", "persistent_id": "", "location_subtype": "", "id": 20830873, "location": {"latitude": "51.505214", "street": {"id": 955552, "name": "On or near Yabsley Street"}, "longitude": "-0.006643"}, "context": "", "month": "2013-01", "location_type": "Force", "outcome_status": null}, {"category": "anti-social-behaviour", "persistent_id": "", "location_subtype": "", "id": 20830923, "location": {"latitude": "51.493444", "street": {"id": 954314, "name": "On or near St James Mews"}, "longitude": "-0.009419"}, "context": "", "month": "2013-01", "location_type": "Force", "outcome_status": null}, {"category": "anti-social-behaviour", "persistent_id": "", "location_subtype": "", "id": 20825795, "location": {"latitude": "51.498791", "street": {"id": 954230, "name": "On or near Spence Close"}, "longitude": "-0.034255"}, "context": "", "month": "2013-01", "location_type": "Force", "outcome_status": null}, {"category": "anti-social-behaviour", "persistent_id": "", "location_subtype": "", "id": 20830911, "location": {"latitude": "51.510017", "street": {"id": 955531, "name": "On or near Bazely Street"}, "longitude": "-0.010930"}, "context": "", "month": "2013-01", "location_type": "Force", "outcome_status": null}, {"category": "anti-social-behaviour", "persistent_id": "", "location_subtype": "", "id": 20830900, "location": {"latitude": "51.508617", "street": {"id": 955536, "name": "On or near Supermarket"}, "longitude": "-0.009550"}, "context": "", "month": "2013-01", "location_type": "Force", "outcome_status": null}, {"category": "anti-social-behaviour", "persistent_id": "", "location_subtype": "", "id": 20830887, "location": {"latitude": "51.510047", "street": {"id": 955482, "name": "On or near Robin Hood Lane"}, "longitude": "-0.007398"}, "context": "", "month": "2013-01", "location_type": "Force", "outcome_status": null}, {"category": "anti-social-behaviour", "persistent_id": "", "location_subtype": "", "id": 20830886, "location": {"latitude": "51.510047", "street": {"id": 955482, "name": "On or near Robin Hood Lane"}, "longitude": "-0.007398"}, "context": "", "month": "2013-01", "location_type": "Force", "outcome_status": null}, {"category": "anti-social-behaviour", "persistent_id": "", "location_subtype": "", "id": 20830884, "location": {"latitude": "51.508298", "street": {"id": 955512, "name": "On or near Bus/coach Station"}, "longitude": "-0.007186"}, "context": "", "month": "2013-01", "location_type": "Force", "outcome_status": null}, {"category": "anti-social-behaviour", "persistent_id": "", "location_subtype": "", "id": 20830882, "location": {"latitude": "51.507907", "street": {"id": 955476, "name": "On or near Pedestrian Subway"}, "longitude": "-0.007952"}, "context": "", "month": "2013-01", "location_type": "Force", "outcome_status": null}, {"category": "anti-social-behaviour", "persistent_id": "", "location_subtype": "", "id": 20830934, "location": {"latitude": "51.508782", "street": {"id": 955521, "name": "On or near Poplar High Street"}, "longitude": "-0.010782"}, "context": "", "month": "2013-01", "location_type": "Force", "outcome_status": null}, {"category": "anti-social-behaviour", "persistent_id": "", "location_subtype": "", "id": 20830933, "location": {"latitude": "51.508782", "street": {"id": 955521, "name": "On or near Poplar High Street"}, "longitude": "-0.010782"}, "context": "", "month": "2013-01", "location_type": "Force", "outcome_status": null}, {"category": "anti-social-behaviour", "persistent_id": "", "location_subtype": "", "id": 20830932, "location": {"latitude": "51.508782", "street": {"id": 955521, "name": "On or near Poplar High Street"}, "longitude": "-0.010782"}, "context": "", "month": "2013-01", "location_type": "Force", "outcome_status": null}, {"category": "anti-social-behaviour", "persistent_id": "", "location_subtype": "", "id": 20830931, "location": {"latitude": "51.508782", "street": {"id": 955521, "name": "On or near Poplar High Street"}, "longitude": "-0.010782"}, "context": "", "month": "2013-01", "location_type": "Force", "outcome_status": null}, {"category": "anti-social-behaviour", "persistent_id": "", "location_subtype": "", "id": 20830930, "location": {"latitude": "51.508782", "street": {"id": 955521, "name": "On or near Poplar High Street"}, "longitude": "-0.010782"}, "context": "", "month": "2013-01", "location_type": "Force", "outcome_status": null}, {"category": "anti-social-behaviour", "persistent_id": "", "location_subtype": "", "id": 20831242, "location": {"latitude": "51.510647", "street": {"id": 955668, "name": "On or near Gill Street"}, "longitude": "-0.029075"}, "context": "", "month": "2013-01", "location_type": "Force", "outcome_status": null}, {"category": "anti-social-behaviour", "persistent_id": "", "location_subtype": "", "id": 20831258, "location": {"latitude": "51.510341", "street": {"id": 955667, "name": "On or near Grenade Street"}, "longitude": "-0.028541"}, "context": "", "month": "2013-01", "location_type": "Force", "outcome_status": null}, {"category": "anti-social-behaviour", "persistent_id": "", "location_subtype": "", "id": 20831243, "location": {"latitude": "51.510647", "street": {"id": 955668, "name": "On or near Gill Street"}, "longitude": "-0.029075"}, "context": "", "month": "2013-01", "location_type": "Force", "outcome_status": null}, {"category": "anti-social-behaviour", "persistent_id": "", "location_subtype": "", "id": 20831244, "location": {"latitude": "51.510129", "street": {"id": 955634, "name": "On or near Stocks Place"}, "longitude": "-0.028247"}, "context": "", "month": "2013-01", "location_type": "Force", "outcome_status": null}, {"category": "anti-social-behaviour", "persistent_id": "", "location_subtype": "", "id": 20831234, "location": {"latitude": "51.510536", "street": {"id": 955644, "name": "On or near Rich Street"}, "longitude": "-0.027855"}, "context": "", "month": "2013-01", "location_type": "Force", "outcome_status": null}, {"category": "anti-social-behaviour", "persistent_id": "", "location_subtype": "", "id": 20831232, "location": {"latitude": "51.510536", "street": {"id": 955644, "name": "On or near Rich Street"}, "longitude": "-0.027855"}, "context": "", "month": "2013-01", "location_type": "Force", "outcome_status": null}, {"category": "anti-social-behaviour", "persistent_id": "", "location_subtype": "", "id": 20830893, "location": {"latitude": "51.498201", "street": {"id": 954346, "name": "On or near Roserton Street"}, "longitude": "-0.009917"}, "context": "", "month": "2013-01", "location_type": "Force", "outcome_status": null}, {"category": "anti-social-behaviour", "persistent_id": "", "location_subtype": "", "id": 20830892, "location": {"latitude": "51.498201", "street": {"id": 954346, "name": "On or near Roserton Street"}, "longitude": "-0.009917"}, "context": "", "month": "2013-01", "location_type": "Force", "outcome_status": null}, {"category": "anti-social-behaviour", "persistent_id": "", "location_subtype": "", "id": 20831257, "location": {"latitude": "51.510341", "street": {"id": 955667, "name": "On or near Grenade Street"}, "longitude": "-0.028541"}, "context": "", "month": "2013-01", "location_type": "Force", "outcome_status": null}, {"category": "anti-social-behaviour", "persistent_id": "", "location_subtype": "", "id": 20831103, "location": {"latitude": "51.510081", "street": {"id": 955641, "name": "On or near Saltwell Street"}, "longitude": "-0.021130"}, "context": "", "month": "2013-01", "location_type": "Force", "outcome_status": null}, {"category": "anti-social-behaviour", "persistent_id": "", "location_subtype": "", "id": 20831093, "location": {"latitude": "51.517770", "street": {"id": 961929, "name": "On or near Hawgood Street"}, "longitude": "-0.020610"}, "context": "", "month": "2013-01", "location_type": "Force", "outcome_status": null}, {"category": "anti-social-behaviour", "persistent_id": "", "location_subtype": "", "id": 20831092, "location": {"latitude": "51.517770", "street": {"id": 961929, "name": "On or near Hawgood Street"}, "longitude": "-0.020610"}, "context": "", "month": "2013-01", "location_type": "Force", "outcome_status": null}, {"category": "anti-social-behaviour", "persistent_id": "", "location_subtype": "", "id": 20831091, "location": {"latitude": "51.517770", "street": {"id": 961929, "name": "On or near Hawgood Street"}, "longitude": "-0.020610"}, "context": "", "month": "2013-01", "location_type": "Force", "outcome_status": null}, {"category": "anti-social-behaviour", "persistent_id": "", "location_subtype": "", "id": 20831089, "location": {"latitude": "51.517770", "street": {"id": 961929, "name": "On or near Hawgood Street"}, "longitude": "-0.020610"}, "context": "", "month": "2013-01", "location_type": "Force", "outcome_status": null}, {"category": "anti-social-behaviour", "persistent_id": "", "location_subtype": "", "id": 20831088, "location": {"latitude": "51.517770", "street": {"id": 961929, "name": "On or near Hawgood Street"}, "longitude": "-0.020610"}, "context": "", "month": "2013-01", "location_type": "Force", "outcome_status": null}, {"category": "anti-social-behaviour", "persistent_id": "", "location_subtype": "", "id": 20831130, "location": {"latitude": "51.518149", "street": {"id": 961931, "name": "On or near Furze Street"}, "longitude": "-0.021775"}, "context": "", "month": "2013-01", "location_type": "Force", "outcome_status": null}, {"category": "anti-social-behaviour", "persistent_id": "", "location_subtype": "", "id": 20831104, "location": {"latitude": "51.510081", "street": {"id": 955641, "name": "On or near Saltwell Street"}, "longitude": "-0.021130"}, "context": "", "month": "2013-01", "location_type": "Force", "outcome_status": null}, {"category": "anti-social-behaviour", "persistent_id": "", "location_subtype": "", "id": 20831227, "location": {"latitude": "51.512200", "street": {"id": 955681, "name": "On or near Burdett Road"}, "longitude": "-0.027351"}, "context": "", "month": "2013-01", "location_type": "Force", "outcome_status": null}, {"category": "anti-social-behaviour", "persistent_id": "", "location_subtype": "", "id": 20830871, "location": {"latitude": "51.513939", "street": {"id": 955501, "name": "On or near Dee Street"}, "longitude": "-0.005744"}, "context": "", "month": "2013-01", "location_type": "Force", "outcome_status": null}, {"category": "anti-social-behaviour", "persistent_id": "", "location_subtype": "", "id": 20830869, "location": {"latitude": "51.512490", "street": {"id": 955507, "name": "On or near Athol Square"}, "longitude": "-0.006729"}, "context": "", "month": "2013-01", "location_type": "Force", "outcome_status": null}, {"category": "anti-social-behaviour", "persistent_id": "", "location_subtype": "", "id": 20830865, "location": {"latitude": "51.513194", "street": {"id": 955503, "name": "On or near Blair Street"}, "longitude": "-0.004248"}, "context": "", "month": "2013-01", "location_type": "Force", "outcome_status": null}, {"category": "anti-social-behaviour", "persistent_id": "", "location_subtype": "", "id": 20830864, "location": {"latitude": "51.513194", "street": {"id": 955503, "name": "On or near Blair Street"}, "longitude": "-0.004248"}, "context": "", "month": "2013-01", "location_type": "Force", "outcome_status": null}, {"category": "anti-social-behaviour", "persistent_id": "", "location_subtype": "", "id": 20830857, "location": {"latitude": "51.513194", "street": {"id": 955503, "name": "On or near Blair Street"}, "longitude": "-0.004248"}, "context": "", "month": "2013-01", "location_type": "Force", "outcome_status": null}, {"category": "anti-social-behaviour", "persistent_id": "", "location_subtype": "", "id": 20830856, "location": {"latitude": "51.513194", "street": {"id": 955503, "name": "On or near Blair Street"}, "longitude": "-0.004248"}, "context": "", "month": "2013-01", "location_type": "Force", "outcome_status": null}, {"category": "anti-social-behaviour", "persistent_id": "", "location_subtype": "", "id": 20831229, "location": {"latitude": "51.507589", "street": {"id": 955663, "name": "On or near Limehouse Link"}, "longitude": "-0.028530"}, "context": "", "month": "2013-01", "location_type": "Force", "outcome_status": null}, {"category": "anti-social-behaviour", "persistent_id": "", "location_subtype": "", "id": 20831254, "location": {"latitude": "51.512753", "street": {"id": 955636, "name": "On or near St Anne's Row"}, "longitude": "-0.029229"}, "context": "", "month": "2013-01", "location_type": "Force", "outcome_status": null}, {"category": "anti-social-behaviour", "persistent_id": "", "location_subtype": "", "id": 20831255, "location": {"latitude": "51.512753", "street": {"id": 955636, "name": "On or near St Anne's Row"}, "longitude": "-0.029229"}, "context": "", "month": "2013-01", "location_type": "Force", "outcome_status": null}, {"category": "anti-social-behaviour", "persistent_id": "", "location_subtype": "", "id": 20831256, "location": {"latitude": "51.512753", "street": {"id": 955636, "name": "On or near St Anne's Row"}, "longitude": "-0.029229"}, "context": "", "month": "2013-01", "location_type": "Force", "outcome_status": null}, {"category": "anti-social-behaviour", "persistent_id": "", "location_subtype": "", "id": 20831280, "location": {"latitude": "51.511673", "street": {"id": 955637, "name": "On or near St Anne's Passage"}, "longitude": "-0.031265"}, "context": "", "month": "2013-01", "location_type": "Force", "outcome_status": null}, {"category": "anti-social-behaviour", "persistent_id": "", "location_subtype": "", "id": 20831007, "location": {"latitude": "51.514445", "street": {"id": 955453, "name": "On or near Carron Close"}, "longitude": "-0.015926"}, "context": "", "month": "2013-01", "location_type": "Force", "outcome_status": null}, {"category": "anti-social-behaviour", "persistent_id": "", "location_subtype": "", "id": 20831006, "location": {"latitude": "51.514445", "street": {"id": 955453, "name": "On or near Carron Close"}, "longitude": "-0.015926"}, "context": "", "month": "2013-01", "location_type": "Force", "outcome_status": null}, {"category": "anti-social-behaviour", "persistent_id": "", "location_subtype": "", "id": 20831005, "location": {"latitude": "51.514445", "street": {"id": 955453, "name": "On or near Carron Close"}, "longitude": "-0.015926"}, "context": "", "month": "2013-01", "location_type": "Force", "outcome_status": null}, {"category": "anti-social-behaviour", "persistent_id": "", "location_subtype": "", "id": 20831004, "location": {"latitude": "51.514445", "street": {"id": 955453, "name": "On or near Carron Close"}, "longitude": "-0.015926"}, "context": "", "month": "2013-01", "location_type": "Force", "outcome_status": null}, {"category": "anti-social-behaviour", "persistent_id": "", "location_subtype": "", "id": 20831003, "location": {"latitude": "51.514445", "street": {"id": 955453, "name": "On or near Carron Close"}, "longitude": "-0.015926"}, "context": "", "month": "2013-01", "location_type": "Force", "outcome_status": null}, {"category": "anti-social-behaviour", "persistent_id": "", "location_subtype": "", "id": 20830997, "location": {"latitude": "51.517282", "street": {"id": 962010, "name": "On or near Fawe Street"}, "longitude": "-0.015687"}, "context": "", "month": "2013-01", "location_type": "Force", "outcome_status": null}, {"category": "anti-social-behaviour", "persistent_id": "", "location_subtype": "", "id": 20830996, "location": {"latitude": "51.517282", "street": {"id": 962010, "name": "On or near Fawe Street"}, "longitude": "-0.015687"}, "context": "", "month": "2013-01", "location_type": "Force", "outcome_status": null}, {"category": "anti-social-behaviour", "persistent_id": "", "location_subtype": "", "id": 20831329, "location": {"latitude": "51.510130", "street": {"id": 955592, "name": "On or near Northey Street"}, "longitude": "-0.035237"}, "context": "", "month": "2013-01", "location_type": "Force", "outcome_status": null}, {"category": "anti-social-behaviour", "persistent_id": "", "location_subtype": "", "id": 20831162, "location": {"latitude": "51.513276", "street": {"id": 955736, "name": "On or near Hind Grove"}, "longitude": "-0.023399"}, "context": "", "month": "2013-01", "location_type": "Force", "outcome_status": null}, {"category": "anti-social-behaviour", "persistent_id": "", "location_subtype": "", "id": 20831174, "location": {"latitude": "51.514440", "street": {"id": 955635, "name": "On or near Stainsby Road"}, "longitude": "-0.024155"}, "context": "", "month": "2013-01", "location_type": "Force", "outcome_status": null}, {"category": "anti-social-behaviour", "persistent_id": "", "location_subtype": "", "id": 20830985, "location": {"latitude": "51.511749", "street": {"id": 955459, "name": "On or near Supermarket"}, "longitude": "-0.013939"}, "context": "", "month": "2013-01", "location_type": "Force", "outcome_status": null}, {"category": "anti-social-behaviour", "persistent_id": "", "location_subtype": "", "id": 20830976, "location": {"latitude": "51.511749", "street": {"id": 955459, "name": "On or near Supermarket"}, "longitude": "-0.013939"}, "context": "", "month": "2013-01", "location_type": "Force", "outcome_status": null}, {"category": "anti-social-behaviour", "persistent_id": "", "location_subtype": "", "id": 20830906, "location": {"latitude": "51.511821", "street": {"id": 955526, "name": "On or near Follett Street"}, "longitude": "-0.010217"}, "context": "", "month": "2013-01", "location_type": "Force", "outcome_status": null}, {"category": "anti-social-behaviour", "persistent_id": "", "location_subtype": "", "id": 20830905, "location": {"latitude": "51.511821", "street": {"id": 955526, "name": "On or near Follett Street"}, "longitude": "-0.010217"}, "context": "", "month": "2013-01", "location_type": "Force", "outcome_status": null}, {"category": "anti-social-behaviour", "persistent_id": "", "location_subtype": "", "id": 20830904, "location": {"latitude": "51.512611", "street": {"id": 955534, "name": "On or near Adderley Street"}, "longitude": "-0.010125"}, "context": "", "month": "2013-01", "location_type": "Force", "outcome_status": null}, {"category": "anti-social-behaviour", "persistent_id": "", "location_subtype": "", "id": 20830948, "location": {"latitude": "51.511814", "street": {"id": 955426, "name": "On or near Susannah Street"}, "longitude": "-0.012466"}, "context": "", "month": "2013-01", "location_type": "Force", "outcome_status": null}, {"category": "anti-social-behaviour", "persistent_id": "", "location_subtype": "", "id": 20830947, "location": {"latitude": "51.511814", "street": {"id": 955426, "name": "On or near Susannah Street"}, "longitude": "-0.012466"}, "context": "", "month": "2013-01", "location_type": "Force", "outcome_status": null}, {"category": "anti-social-behaviour", "persistent_id": "", "location_subtype": "", "id": 20830946, "location": {"latitude": "51.511814", "street": {"id": 955426, "name": "On or near Susannah Street"}, "longitude": "-0.012466"}, "context": "", "month": "2013-01", "location_type": "Force", "outcome_status": null}, {"category": "anti-social-behaviour", "persistent_id": "", "location_subtype": "", "id": 20830945, "location": {"latitude": "51.511814", "street": {"id": 955426, "name": "On or near Susannah Street"}, "longitude": "-0.012466"}, "context": "", "month": "2013-01", "location_type": "Force", "outcome_status": null}, {"category": "anti-social-behaviour", "persistent_id": "", "location_subtype": "", "id": 20830944, "location": {"latitude": "51.511814", "street": {"id": 955426, "name": "On or near Susannah Street"}, "longitude": "-0.012466"}, "context": "", "month": "2013-01", "location_type": "Force", "outcome_status": null}, {"category": "anti-social-behaviour", "persistent_id": "", "location_subtype": "", "id": 20831207, "location": {"latitude": "51.512956", "street": {"id": 955648, "name": "On or near Pigott Street"}, "longitude": "-0.025762"}, "context": "", "month": "2013-01", "location_type": "Force", "outcome_status": null}, {"category": "burglary", "persistent_id": "b10b6ee35bcf78500d8dce12a09021ec5ff9910e6d7ffaebc1ccdb20246f97b8", "location_subtype": "", "id": 20747554, "location": {"latitude": "51.495942", "street": {"id": 954184, "name": "On or near Starboard Way"}, "longitude": "-0.020979"}, "context": "", "month": "2013-01", "location_type": "Force", "outcome_status": {"category": "Offender given a caution", "date": "2013-02"}}, {"category": "burglary", "persistent_id": "067123fe4afd0f8d30cf17c8001c368caa7fd54caed9878946684c8fe768679f", "location_subtype": "", "id": 20761287, "location": {"latitude": "51.513152", "street": {"id": 955445, "name": "On or near Flora Close"}, "longitude": "-0.019268"}, "context": "", "month": "2013-01", "location_type": "Force", "outcome_status": {"category": "Investigation complete; no suspect identified", "date": "2013-02"}}, {"category": "burglary", "persistent_id": "fa7053a63046c270ad7ad6ff8ff1623316f2bd7cff611530a1940262b9fe1f73", "location_subtype": "", "id": 20776830, "location": {"latitude": "51.514087", "street": {"id": 955309, "name": "On or near Lanrick Road"}, "longitude": "0.001440"}, "context": "", "month": "2013-01", "location_type": "Force", "outcome_status": {"category": "Investigation complete; no suspect identified", "date": "2013-02"}}, {"category": "burglary", "persistent_id": "f40673e3ad61743336e359e45f0b2b937bfc3677881b78677be8cebaed48cf97", "location_subtype": "", "id": 20761302, "location": {"latitude": "51.514134", "street": {"id": 955484, "name": "On or near Portree Street"}, "longitude": "0.000751"}, "context": "", "month": "2013-01", "location_type": "Force", "outcome_status": {"category": "Investigation complete; no suspect identified", "date": "2013-02"}}, {"category": "burglary", "persistent_id": "ef1772df50833fdf4a12b3b95e62aecdf7672dc49494caad29f9a1fc1b84e7a2", "location_subtype": "", "id": 20748875, "location": {"latitude": "51.514134", "street": {"id": 955484, "name": "On or near Portree Street"}, "longitude": "0.000751"}, "context": "", "month": "2013-01", "location_type": "Force", "outcome_status": {"category": "Investigation complete; no suspect identified", "date": "2013-01"}}, {"category": "burglary", "persistent_id": "0c232ada5e4c3eab2f47bf08425ab861f8620eae6c5b6dbc00fc922bb565b533", "location_subtype": "", "id": 20794760, "location": {"latitude": "51.518985", "street": {"id": 962015, "name": "On or near Celtic Street"}, "longitude": "-0.012658"}, "context": "", "month": "2013-01", "location_type": "Force", "outcome_status": {"category": "Investigation complete; no suspect identified", "date": "2013-02"}}, {"category": "burglary", "persistent_id": "00c373f97ab6d78227ddd18dd393b448ae9860333d57d7bb9ff6e5eadaec994a", "location_subtype": "", "id": 20757769, "location": {"latitude": "51.518216", "street": {"id": 962024, "name": "On or near Ailsa Street"}, "longitude": "-0.008151"}, "context": "", "month": "2013-01", "location_type": "Force", "outcome_status": {"category": "Investigation complete; no suspect identified", "date": "2013-02"}}, {"category": "burglary", "persistent_id": "5dd0385533273e9cdbed843bf77b4f47fd89eca3cd064cd362ade94d37eb1a8c", "location_subtype": "", "id": 20810155, "location": {"latitude": "51.515233", "street": {"id": 955467, "name": "On or near Ellesmere Street"}, "longitude": "-0.018918"}, "context": "", "month": "2013-01", "location_type": "Force", "outcome_status": {"category": "Investigation complete; no suspect identified", "date": "2013-01"}}, {"category": "burglary", "persistent_id": "a7ea9e6b2eb722ab673fd4e6ae8aabf472a79f21fb35d7a1ab2b80c958d684b9", "location_subtype": "", "id": 20802658, "location": {"latitude": "51.516039", "street": {"id": 955702, "name": "On or near Cotall Street"}, "longitude": "-0.022472"}, "context": "", "month": "2013-01", "location_type": "Force", "outcome_status": {"category": "Investigation complete; no suspect identified", "date": "2013-03"}}, {"category": "burglary", "persistent_id": "2ab9c6f2d6edbec95278e2e7b034eea9edf5cc18b76e344a42a86505f8b382fa", "location_subtype": "", "id": 20756290, "location": {"latitude": "51.512316", "street": {"id": 955679, "name": "On or near Canton Street"}, "longitude": "-0.023022"}, "context": "", "month": "2013-01", "location_type": "Force", "outcome_status": {"category": "Investigation complete; no suspect identified", "date": "2013-05"}}, {"category": "burglary", "persistent_id": "092cfddaefb2ac351b4da42551bb0f01de08acd0b9c950948b565b42950112d1", "location_subtype": "", "id": 20754383, "location": {"latitude": "51.510130", "street": {"id": 955592, "name": "On or near Northey Street"}, "longitude": "-0.035237"}, "context": "", "month": "2013-01", "location_type": "Force", "outcome_status": {"category": "Investigation complete; no suspect identified", "date": "2013-02"}}, {"category": "burglary", "persistent_id": "27ed8ba6cd88ea1713f1fb44cac9f32ba018b87b998e8216611b2aff7e84aa7b", "location_subtype": "", "id": 20745395, "location": {"latitude": "51.509487", "street": {"id": 955649, "name": "On or near Pennyfields"}, "longitude": "-0.023736"}, "context": "", "month": "2013-01", "location_type": "Force", "outcome_status": {"category": "Investigation complete; no suspect identified", "date": "2013-01"}}, {"category": "burglary", "persistent_id": "e0581533267e30d816b7c38ac2eb11bc5bc804532adae557925dc7510518efb1", "location_subtype": "", "id": 20812006, "location": {"latitude": "51.492038", "street": {"id": 954304, "name": "On or near Charnwood Gardens"}, "longitude": "-0.023050"}, "context": "", "month": "2013-01", "location_type": "Force", "outcome_status": {"category": "Investigation complete; no suspect identified", "date": "2013-07"}}, {"category": "burglary", "persistent_id": "c41e6038db35e934bc29c8e9893171b7440046d44560606726db9d88c66716b0", "location_subtype": "", "id": 20809282, "location": {"latitude": "51.508962", "street": {"id": 955483, "name": "On or near Quixley Street"}, "longitude": "-0.004967"}, "context": "", "month": "2013-01", "location_type": "Force", "outcome_status": {"category": "Investigation complete; no suspect identified", "date": "2013-01"}}, {"category": "burglary", "persistent_id": "a055c4f0c5fea6d329eea282c081f7898015b63a17c470e782f6539d6c80e6d5", "location_subtype": "", "id": 20797263, "location": {"latitude": "51.512178", "street": {"id": 955499, "name": "On or near East India Dock Road"}, "longitude": "-0.003197"}, "context": "", "month": "2013-01", "location_type": "Force", "outcome_status": {"category": "Investigation complete; no suspect identified", "date": "2013-02"}}, {"category": "burglary", "persistent_id": "a41f81cf58905c6bb3a506765824c702a0c0c4a4db802d73f60c9f6be3b93d8d", "location_subtype": "", "id": 20789259, "location": {"latitude": "51.505901", "street": {"id": 955561, "name": "On or near Boardwalk Place"}, "longitude": "-0.010043"}, "context": "", "month": "2013-01", "location_type": "Force", "outcome_status": {"category": "Investigation complete; no suspect identified", "date": "2014-01"}}, {"category": "burglary", "persistent_id": "575ac8a63e5e73c06328452f12f9e87810bba0d7a674addff7d58fd7e9d48e80", "location_subtype": "", "id": 20744982, "location": {"latitude": "51.499866", "street": {"id": 954352, "name": "On or near Conference/exhibition Centre"}, "longitude": "-0.012121"}, "context": "", "month": "2013-01", "location_type": "Force", "outcome_status": {"category": "Investigation complete; no suspect identified", "date": "2013-01"}}, {"category": "burglary", "persistent_id": "74803b65bd0cbafcdd433611fac3ec95a66d008730f6d022bcd912a334045e29", "location_subtype": "", "id": 20736372, "location": {"latitude": "51.505743", "street": {"id": 955559, "name": "On or near Trafalgar Way"}, "longitude": "-0.010813"}, "context": "", "month": "2013-01", "location_type": "Force", "outcome_status": {"category": "Investigation complete; no suspect identified", "date": "2013-02"}}, {"category": "burglary", "persistent_id": "e50e0a1ae09c5c16369c943ed78a97fa34455ef71392b53cec1cf8d2b65578e6", "location_subtype": "", "id": 20740296, "location": {"latitude": "51.514409", "street": {"id": 955639, "name": "On or near Southwater Close"}, "longitude": "-0.030873"}, "context": "", "month": "2013-01", "location_type": "Force", "outcome_status": {"category": "Investigation complete; no suspect identified", "date": "2013-05"}}, {"category": "burglary", "persistent_id": "ac27828a757b48cf64151b6c8a0b1e4b36b9b4fc4d41a5b7aae07b88b5674573", "location_subtype": "", "id": 20805622, "location": {"latitude": "51.511330", "street": {"id": 955683, "name": "On or near Beccles Street"}, "longitude": "-0.028513"}, "context": "", "month": "2013-01", "location_type": "Force", "outcome_status": {"category": "Investigation complete; no suspect identified", "date": "2013-07"}}, {"category": "burglary", "persistent_id": "f6ec89ca809be4d9f0b11c4bac002dab2a626f6a716da62c1d9599a9b37cbd67", "location_subtype": "", "id": 20791216, "location": {"latitude": "51.495625", "street": {"id": 954320, "name": "On or near Glengall Grove"}, "longitude": "-0.012349"}, "context": "", "month": "2013-01", "location_type": "Force", "outcome_status": {"category": "Under investigation", "date": "2013-01"}}, {"category": "burglary", "persistent_id": "6968c3274caeff849f8f4ccade9881da4f9b32eb4d48d698f598532e56a48286", "location_subtype": "", "id": 20757268, "location": {"latitude": "51.512100", "street": {"id": 955574, "name": "On or near Norway Place"}, "longitude": "-0.033668"}, "context": "", "month": "2013-01", "location_type": "Force", "outcome_status": {"category": "Under investigation", "date": "2013-01"}}, {"category": "burglary", "persistent_id": "cf376ed6c8e7093d9819e6df0637d3ca1ed09bd4b1a1bfbdc3eb2a1f9129c701", "location_subtype": "", "id": 20752686, "location": {"latitude": "51.499386", "street": {"id": 954236, "name": "On or near Defoe Road"}, "longitude": "-0.034330"}, "context": "", "month": "2013-01", "location_type": "Force", "outcome_status": {"category": "Investigation complete; no suspect identified", "date": "2013-01"}}, {"category": "burglary", "persistent_id": "48fac91ae5851684ac40a36f0e1723ffa03922d4a4b4f9796f2f763ed527c1ef", "location_subtype": "", "id": 20804638, "location": {"latitude": "51.503419", "street": {"id": 954231, "name": "On or near Silver Walk"}, "longitude": "-0.034056"}, "context": "", "month": "2013-01", "location_type": "Force", "outcome_status": {"category": "Under investigation", "date": "2013-01"}}, {"category": "burglary", "persistent_id": "89f26df3d270f0cafebc8b9f8de7523e347738ded736a9273e7f90a635c8b54b", "location_subtype": "", "id": 20747548, "location": {"latitude": "51.493361", "street": {"id": 954328, "name": "On or near Olliffe Street"}, "longitude": "-0.007132"}, "context": "", "month": "2013-01", "location_type": "Force", "outcome_status": {"category": "Investigation complete; no suspect identified", "date": "2013-04"}}, {"category": "burglary", "persistent_id": "2b85d7422ee835b73c57e24a1439e3fd35ab38aa8bc8f1544fde6268ce20208c", "location_subtype": "", "id": 20736633, "location": {"latitude": "51.492490", "street": {"id": 954392, "name": "On or near Chichester Way"}, "longitude": "-0.004562"}, "context": "", "month": "2013-01", "location_type": "Force", "outcome_status": {"category": "Under investigation", "date": "2013-01"}}, {"category": "burglary", "persistent_id": "c531ec29f3c9d4938ba886bee8461dc3a25082ed8d01ef132aa1909a97364954", "location_subtype": "", "id": 20811975, "location": {"latitude": "51.516555", "street": {"id": 955540, "name": "On or near Nairn Street"}, "longitude": "-0.007791"}, "context": "", "month": "2013-01", "location_type": "Force", "outcome_status": {"category": "Under investigation", "date": "2013-01"}}, {"category": "burglary", "persistent_id": "847c3cc2c3ca96983f47b8023e67f4dceea125f0119b8468c4a08cb38bcd16eb", "location_subtype": "", "id": 20802766, "location": {"latitude": "51.508945", "street": {"id": 955627, "name": "On or near Westferry Road"}, "longitude": "-0.026800"}, "context": "", "month": "2013-01", "location_type": "Force", "outcome_status": {"category": "Under investigation", "date": "2013-01"}}, {"category": "burglary", "persistent_id": "b37d9b616cce6e96bc55d6bcb48acbeb6af24ead68b2f7346a5f5ea97c1ab0ca", "location_subtype": "", "id": 20749371, "location": {"latitude": "51.507806", "street": {"id": 955666, "name": "On or near Hertsmere Road"}, "longitude": "-0.023290"}, "context": "", "month": "2013-01", "location_type": "Force", "outcome_status": {"category": "Suspect charged as part of another case", "date": "2013-04"}}, {"category": "burglary", "persistent_id": "796f3c0da3a59637370dbac6074a49f2b7af8ec6574c0e681254e7f840dd2007", "location_subtype": "", "id": 20808511, "location": {"latitude": "51.505214", "street": {"id": 955552, "name": "On or near Yabsley Street"}, "longitude": "-0.006643"}, "context": "", "month": "2013-01", "location_type": "Force", "outcome_status": {"category": "Under investigation", "date": "2013-01"}}, {"category": "burglary", "persistent_id": "0fe42c6d4171fbf1e1f1cc475b4442def2b87469b413b055476b918611b02847", "location_subtype": "", "id": 20808216, "location": {"latitude": "51.500063", "street": {"id": 954350, "name": "On or near Lawn House Close"}, "longitude": "-0.010485"}, "context": "", "month": "2013-01", "location_type": "Force", "outcome_status": {"category": "Under investigation", "date": "2013-01"}}, {"category": "burglary", "persistent_id": "f42993f8b9f90d58c7c4ba14d45a5b4c88fb03c30e8932325bb747e19cd01702", "location_subtype": "", "id": 20776954, "location": {"latitude": "51.501083", "street": {"id": 954202, "name": "On or near Manilla Street"}, "longitude": "-0.024532"}, "context": "", "month": "2013-01", "location_type": "Force", "outcome_status": {"category": "Suspect charged as part of another case", "date": "2013-04"}}, {"category": "burglary", "persistent_id": "f4dfbd2d92de82e31d4d883c65b08ae6d71b6b49a8fbad30cafd086af80c1c55", "location_subtype": "", "id": 20749382, "location": {"latitude": "51.517588", "street": {"id": 962013, "name": "On or near Clutton Street"}, "longitude": "-0.014074"}, "context": "", "month": "2013-01", "location_type": "Force", "outcome_status": {"category": "Investigation complete; no suspect identified", "date": "2013-10"}}, {"category": "burglary", "persistent_id": "639e278c0c6d59bf49752cba92d4646eb486b3575793cb1c8e37acb2bbd362b6", "location_subtype": "", "id": 20747579, "location": {"latitude": "51.505180", "street": {"id": 955709, "name": "On or near Supermarket"}, "longitude": "-0.021674"}, "context": "", "month": "2013-01", "location_type": "Force", "outcome_status": {"category": "Suspect charged as part of another case", "date": "2013-04"}}, {"category": "burglary", "persistent_id": "0862b3d5b244ca70805aebb5e82377e4f8e866ebf64a08989bec7b65bc3729c8", "location_subtype": "", "id": 20797247, "location": {"latitude": "51.516867", "street": {"id": 961921, "name": "On or near Upper North Street"}, "longitude": "-0.022004"}, "context": "", "month": "2013-01", "location_type": "Force", "outcome_status": {"category": "Investigation complete; no suspect identified", "date": "2013-03"}}, {"category": "burglary", "persistent_id": "702550701fd914b99b11f388dd762a54a6021a11fc055c39b55fca56f9ef951b", "location_subtype": "", "id": 20743591, "location": {"latitude": "51.513612", "street": {"id": 955421, "name": "On or near Parking Area"}, "longitude": "-0.012978"}, "context": "", "month": "2013-01", "location_type": "Force", "outcome_status": {"category": "Investigation complete; no suspect identified", "date": "2013-02"}}, {"category": "burglary", "persistent_id": "3e096a5204405cc5f97bb9efa0061df3966438f18135c04da927aec8864c3b4c", "location_subtype": "", "id": 20812873, "location": {"latitude": "51.504526", "street": {"id": 955716, "name": "On or near Ferry Terminal"}, "longitude": "-0.033000"}, "context": "", "month": "2013-01", "location_type": "Force", "outcome_status": {"category": "Investigation complete; no suspect identified", "date": "2013-02"}}, {"category": "burglary", "persistent_id": "9cd8632d42c21587894e43df4622225ed23f1b141e723abfafdfe70bcef5eea2", "location_subtype": "", "id": 20811931, "location": {"latitude": "51.513512", "street": {"id": 955650, "name": "On or near Pelling Street"}, "longitude": "-0.025132"}, "context": "", "month": "2013-01", "location_type": "Force", "outcome_status": {"category": "Investigation complete; no suspect identified", "date": "2013-02"}}, {"category": "burglary", "persistent_id": "51a713e48402cb7aa31bbd89c6acb8e0c5835c964cabb5b68059dda17dcfcb9e", "location_subtype": "", "id": 20811367, "location": {"latitude": "51.516039", "street": {"id": 955702, "name": "On or near Cotall Street"}, "longitude": "-0.022472"},